


[
  {
    "name": "Toolbox Bodensee",
    "loc": {
      "lat": 47.7126816,
      "long": 9.3995537,
      "plz": 88677,
      "city": "Markdorf",
      "street": "Bergheimer Straße 6",
      "country": "DE" 
    },
    "style": "for all",
    "link": {
      "url": "https://www.toolbox-bodensee.de",
      "text": "toolbox-bodensee.de"
    }
  },


  {
    "name": "SLUB Makerspace",
    "loc": {
      "lat": 51.0296177,
      "long": 13.7387907,
      "plz": 1069,
      "city": "Dresden",
      "street": "Zellescher Weg 17",
      "country": "Germany"
    },
    "style": "commercial",
    "link": {
      "url": "https://www.slub-dresden.de",
      "text": "slub-dresden.de"
    }
  },


  {
    "name": "Turmlabor, TU Dresden",
    "loc": {
      "lat": 51.0271193,
      "long": 13.7236009,
      "plz": 1069,
      "city": "Dresden",
      "street": "Helmholtzstraße 18",
      "country": "Germany"
    },
    "style": "for all",
    "link": {
      "url": "https://www.turmlabor.de",
      "text": "turmlabor.de"
    }
  },


  {
    "name": "c3d2",
    "loc": {
      "lat": 51.0810679,
      "long": 13.7285471,
      "plz": 1127,
      "city": "Dresden",
      "street": "Riesaer Straße 32",
      "country": "Germany"
    },
    "style": "for all",
    "link": {
      "url": "https://c3d2.de",
      "text": "c3d2.de"
    }
  },


  {
    "name": "Konglomerat e.V.",
    "loc": {
      "lat": 51.0461546,
      "long": 13.7160188,
      "plz": 1159,
      "city": "Dresden",
      "street": "Jagdweg 1-3",
      "country": "Germany"
    },
    "style": "for all",
    "link": {
      "url": "https://konglomerat.org",
      "text": "konglomerat.org"
    }
  },


  {
    "name": "Makerspace Geistesblitz",
    "loc": {
      "lat": 51.0962523,
      "long": 14.6667034,
      "plz": 2708,
      "city": "Löbau",
      "street": "Bahnhofstraße 2",
      "country": "Germany"
    },
    "style": "for all",
    "link": {
      "url": "https://makerspace.loebaulebt.de",
      "text": "makerspace.loebaulebt.de"
    }
  },


  {
    "name": "Polytechnischer Werkraum Zittau",
    "loc": {
      "lat": 50.8972850,
      "long": 14.8042781,
      "plz": 2763,
      "city": "Zittau",
      "street": "Innere Weberstraße 16",
      "country": "Germany"
    },
    "style": "for all",
    "link": {
      "url": "https://www.werkraum.space",
      "text": "werkraum.space"
    }
  },


  {
    "name": "Makerspace Leipzig",
    "loc": {
      "lat": 51.3664380,
      "long": 12.3651633,
      "plz": 4155,
      "city": "Leipzig",
      "street": "Lindenthaler Straße 61-65",
      "country": "Germany"
    },
    "style": "for all",
    "link": {
      "url": "https://www.makerspace-leipzig.de",
      "text": "makerspace-leipzig.de"
    }
  },


  {
    "name": "Offene Werkstatt Grünau",
    "loc": {
      "lat": 51.3202960,
      "long": 12.2887017,
      "plz": 4209,
      "city": "Leipzig",
      "street": "Offenburger Str. 17",
      "country": "Germany"
    },
    "style": "for all",
    "link": {
      "url": "https://offene-werkstaetten.org/werkstatt/makerspace-gruenau",
      "text": "offene-werkstaetten.org"
    }
  },


  {
    "name": "dezentrale e.V.",
    "loc": {
      "lat": 51.3464633,
      "long": 12.3961990,
      "plz": 4315,
      "city": "Leipzig",
      "street": "Eisenbahnstraße 9",
      "country": "Germany"
    },
    "style": "for all",
    "link": {
      "url": "https://dezentrale.space",
      "text": "dezentrale.space"
    }
  },


  {
    "name": "Wissenschaftsladen Leipzig e.V.",
    "loc": {
      "lat": 51.3459307,
      "long": 12.4071764,
      "plz": 4315,
      "city": "Leipzig",
      "street": "Hildegardstraße 51",
      "country": "Germany"
    },
    "style": "for all",
    "link": {
      "url": "http://hybridartlab.de",
      "text": "hybridartlab.de"
    }
  },


  {
    "name": "Krautspace Jena",
    "loc": {
      "lat": 50.9292225,
      "long": 11.5826600,
      "plz": 7743,
      "city": "Jena",
      "street": "Krautgasse 26",
      "country": "Germany"
    },
    "style": "for all",
    "link": {
      "url": "https://krautspace.de",
      "text": "krautspace.de"
    }
  },


  {
    "name": "Lichtwerkstatt Jena",
    "loc": {
      "lat": 50.9085994,
      "long": 11.5685813,
      "plz": 7745,
      "city": "Jena",
      "street": "Albert-Einstein-Straße 6",
      "country": "Germany"
    },
    "style": "for all",
    "link": {
      "url": "https://lichtwerkstatt-jena.de/",
      "text": "lichtwerkstatt-jena.de"
    }
  },


  {
    "name": "TüftelLab Berlin",
    "loc": {
      "lat": 52.5034893,
      "long": 13.4322983,
      "plz": 10969,
      "city": "Berlin",
      "street": "Prinzenstraße 85c",
      "country": "Germany"
    },
    "style": "only for youth",
    "link": {
      "url": "https://tueftellab.de/makerspace/berlin",
      "text": "tueftellab.de"
    }
  },


  {
    "name": "Happylab Berlin",
    "loc": {
      "lat": 52.4793453,
      "long": 13.4323412,
      "plz": 12053,
      "city": "Berlin",
      "street": "Rollbergstraße 28a",
      "country": "Germany"
    },
    "style": "commercial",
    "link": {
      "url": "https://www.happylab.de/de_ber",
      "text": "happylab.de/de_ber"
    }
  },


  {
    "name": "Landkombinat e.V.",
    "loc": {
      "lat": 53.8400254,
      "long": 13.0743426,
      "plz": 17111,
      "city": "Beggerow",
      "street": "Gatschow 22",
      "country": "Germany"
    },
    "style": "for all",
    "link": {
      "url": "https://www.landkombinat.org/konzept-werkstaetten",
      "text": "landkombinat.org"
    }
  },


  {
    "name": "Entität e. V.",
    "loc": {
      "lat": 53.5600378,
      "long": 13.2633732,
      "plz": 17033,
      "city": "Neubrandenburg",
      "street": "1. Ringstraße 5",
      "country": "Germany"
    },
    "style": "for all",
    "link": {
      "url": "https://entitaet.org",
      "text": "entitaet.org"
    }
  },


  {
    "name": "Makerspace Greifswald",
    "loc": {
      "lat": 54.1020857,
      "long": 13.4426848,
      "plz": 17493,
      "city": "Greifswald",
      "street": "Friedrich-von-Hagenow-Straße 5",
      "country": "Germany"
    },
    "style": "for all",
    "link": {
      "url": "https://greifswald.space",
      "text": "greifswald.space"
    }
  },


  {
    "name": "Hackspace Rostock",
    "loc": {
      "lat": 54.0873611,
      "long": 12.1245820,
      "plz": 18057,
      "city": "Rostock",
      "street": "Friedhofsweg 44a",
      "country": "Germany"
    },
    "style": "for all",
    "link": {
      "url": "https://hack-hro.de",
      "text": "hack-hro.de"
    }
  },


  {
    "name": "Project Bay Makerspace",
    "loc": {
      "lat": 54.5084929,
      "long": 13.6182393,
      "plz": 18546,
      "city": "Sassnitz",
      "street": "Straße Der Jugend 7",
      "country": "Germany"
    },
    "style": "commercial",
    "link": {
      "url": "https://project-bay.de/lietzow-bay/maker-space-gemeinschafts-werkstatt-auf-ruegen",
      "text": "project-bay.de"
    }
  },


  {
    "name": "TüftelLab Hamburg",
    "loc": {
      "lat": 53.5552490,
      "long": 9.9875944,
      "plz": 20354,
      "city": "Hamburg",
      "street": "Gänsemarkt 33",
      "country": "Germany"
    },
    "style": "only for youth",
    "link": {
      "url": "https://tueftellab.de/makerspace/hamburg-105viertel",
      "text": "tueftellab.de"
    }
  },


  {
    "name": "HoFaLab e.V.",
    "loc": {
      "lat": 53.5205538,
      "long": 10.0199596,
      "plz": 20539,
      "city": "Hamburg",
      "street": "Packersweide 7",
      "country": "Germany"
    },
    "style": "for all",
    "link": {
      "url": "https://hofalab.de/de/home-de/",
      "text": "hofalab.de"
    }
  },


  {
    "name": "Fabulous St. Pauli",
    "loc": {
      "lat": 53.5421506,
      "long": 10.010595,
      "plz": 20457,
      "city": "Hamburg",
      "street": "Stockmeyerstr. 43, Halle 4K",
      "country": "Germany"
    },
    "style": "for all",
    "link": {
      "url": "https://www.fablab-hamburg.org",
      "text": "fablab-hamburg.org"
    }
  },


  {
    "name": "TU Hamburg - WorkING Lab",
    "loc": {
      "lat": 53.4594515,
      "long": 9.9692056,
      "plz": 21073,
      "city": "Hamburg",
      "street": "Eißendorfer Straße 40",
      "country": "Germany"
    },
    "style": "for all",
    "link": {
      "url": "https://www2.tuhh.de/zll/workinglab",
      "text": "tuhh.de/zll/workinglab"
    }
  },


  {
    "name": "Stübi Makerspace",
    "loc": {
      "lat": 53.4829981,
      "long": 10.0154837,
      "plz": 21109,
      "city": "Hamburg",
      "street": "Stübenhofer Weg 20a",
      "country": "Germany"
    },
    "style": "only for youth",
    "link": {
      "url": "https://stuebi-makerspace.de",
      "text": "stuebi-makerspace.de"
    }
  },


  {
    "name": "Makerhafen",
    "loc": {
      "lat": 53.5628589,
      "long": 9.9257698,
      "plz": 22761,
      "city": "Hamburg",
      "street": "Stahltwiete 21",
      "country": "Germany"
    },
    "style": "for all",
    "link": {
      "url": "https://www.makerhafen.de",
      "text": "makerhafen.de"
    }
  },


  {
    "name": "Attraktor",
    "loc": {
      "lat": 53.5498981,
      "long": 9.9464159,
      "plz": 22767,
      "city": "Hamburg",
      "street": "Eschelsweg 4",
      "country": "Germany"
    },
    "style": "for all",
    "link": {
      "url": "https://makerspace-hamburg.de/attraktor",
      "text": "makerspace-hamburg.de/attraktor"
    }
  },


  {
    "name": "StartUpYard Wismar",
    "loc": {
      "lat": 53.8892887,
      "long": 11.4471012,
      "plz": 23966,
      "city": "Wismar",
      "street": "Philipp-Müller-Straße 14",
      "country": "Germany"
    },
    "style": "only for students",
    "link": {
      "url": "https://www.hs-wismar.de/vernetzung/institutionen-hochschulunternehmen/rsi/idee-und-gruendung/startupyard/",
      "text": "hs-wismar.de"
    }
  },


  {
    "name": "FabLab Bremen",
    "loc": {
      "lat": 53.0811707,
      "long": 8.8161746,
      "plz": 28195,
      "city": "Bremen",
      "street": "An der Weide 50a",
      "country": "Germany"
    },
    "style": "only for students & youth",
    "link": {
      "url": "https://fablab-bremen.org",
      "text": "fablab-bremen.org"
    }
  },


  {
    "name": "Hackerspace Bremen",
    "loc": {
      "lat": 53.0819924,
      "long": 8.8058690,
      "plz": 28195,
      "city": "Bremen",
      "street": "Bornstraße 14-15",
      "country": "Germany"
    },
    "style": "for all",
    "link": {
      "url": "https://www.hackerspace-bremen.de",
      "text": "hackerspace-bremen.de"
    }
  },


  {
    "name": "Hafven Maker Space",
    "loc": {
      "lat": 52.3880068,
      "long": 9.7262848,
      "plz": 30167,
      "city": "Hannover",
      "street": "Kopernikusstraße 14",
      "country": "Germany"
    },
    "style": "for all",
    "link": {
      "url": "https://hafven.de/maker-space",
      "text": "hafven.de/maker-space"
    }
  },


  {
    "name": "MakerSpace Minden",
    "loc": {
      "lat": 52.2822402,
      "long": 8.9106055,
      "plz": 32423,
      "city": "Minden",
      "street": "Simeonscarré 2",
      "country": "Germany"
    },
    "style": "for all",
    "link": {
      "url": "https://www.makerspace-minden.de",
      "text": "makerspace-minden.de"
    }
  },


  {
    "name": "C3PB",
    "loc": {
      "lat": 51.7170399,
      "long": 8.7475661,
      "plz": 33098,
      "city": "Paderborn",
      "street": "Westernmauer 12-16",
      "country": "Germany"
    },
    "style": "for all",
    "link": {
      "url": "https://c3pb.de",
      "text": "c3pb.de"
    }
  },


  {
    "name": "Univ. Paderborn - garage33",
    "loc": {
      "lat": 51.7198208,
      "long": 8.7799918,
      "plz": 33100,
      "city": "Paderborn",
      "street": "Ausblick 1",
      "country": "Germany"
    },
    "style": "for all",
    "link": {
      "url": "https://www.tecup.de/maker-space",
      "text": "tecup.de/maker-space"
    }
  },


  {
    "name": "Makerspace Gütersloh",
    "loc": {
      "lat": 51.9022879,
      "long": 8.3773189,
      "plz": 33330,
      "city": "Gütersloh",
      "street": "Bogenstraße 1-8",
      "country": "Germany"
    },
    "style": "for all",
    "link": {
      "url": "https://makerspace-gt.de",
      "text": "makerspace-gt.de"
    }
  },


  {
    "name": "Hackerspace Bielefeld",
    "loc": {
      "lat": 52.0369989,
      "long": 8.5692467,
      "plz": 33609,
      "city": "Bielefeld",
      "street": "Blomestraße 27",
      "country": "Germany"
    },
    "style": "for all",
    "link": {
      "url": "https://hackerspace-bielefeld.de",
      "text": "hackerspace-bielefeld.de"
    }
  },


  {
    "name": "flipdot Hackspace",
    "loc": {
      "lat": 51.3209321,
      "long": 9.4950466,
      "plz": 34117,
      "city": "Kassel",
      "street": "Schillerstraße 25",
      "country": "Germany"
    },
    "style": "for all",
    "link": {
      "url": "https://flipdot.org",
      "text": "flipdot.org"
    }
  },


  {
    "name": "MaGie - Makerspace Gießen",
    "loc": {
      "lat": 50.5899306,
      "long": 8.6777523,
      "plz": 35390,
      "city": "Gießen",
      "street": "Walltorstraße 57",
      "country": "Germany"
    },
    "style": "for all",
    "link": {
      "url": "https://www.makerspace-giessen.de",
      "text": "makerspace-giessen.de"
    }
  },


  {
    "name": "Magrathea Laboratories",
    "loc": {
      "lat": 50.5522661,
      "long": 9.6807826,
      "plz": 36037,
      "city": "Fulda",
      "street": "Lindenstraße 14",
      "country": "Germany"
    },
    "style": "for all",
    "link": {
      "url": "https://maglab.space/de",
      "text": "maglab.space/de/"
    }
  },


  {
    "name": "oLaF - offenes Labor Fulda",
    "loc": {
      "lat": 50.5545190,
      "long": 9.6969593,
      "plz": 36037,
      "city": "Fulda",
      "street": "Domänenweg 2",
      "country": "Germany"
    },
    "style": "for all",
    "link": {
      "url": "https://olaf.one",
      "text": "olaf.one"
    }
  },


  {
    "name": "Makerspace Braunschweig",
    "loc": {
      "lat": 52.2822038,
      "long": 10.5156945,
      "plz": 38114,
      "city": "Braunschweig",
      "street": "Hamburger Str. 49",
      "country": "Germany"
    },
    "style": "for all",
    "link": {
      "url": "https://www.makerspace-bs.de",
      "text": "makerspace-bs.de"
    }
  },


  {
    "name": "CCC / Chaosdorf e.V.",
    "loc": {
      "lat": 51.2125555,
      "long": 6.7996446,
      "plz": 40227,
      "city": "Düsseldorf",
      "street": "Sonnenstraße 58",
      "country": "Germany"
    },
    "style": "for all",
    "link": {
      "url": "https://chaosdorf.de",
      "text": "chaosdorf.de"
    }
  },


  {
    "name": "GarageLab e.V.",
    "loc": {
      "lat": 51.2277831,
      "long": 6.8003976,
      "plz": 40233,
      "city": "Düsseldorf",
      "street": "Birkenstraße 23",
      "country": "Germany"
    },
    "style": "for all",
    "link": {
      "url": "https://garage-lab.de",
      "text": "garage-lab.de"
    }
  },


  {
    "name": "Maschinendorf",
    "loc": {
      "lat": 51.2277380,
      "long": 6.8003522,
      "plz": 40233,
      "city": "Düsseldorf",
      "street": "Birkenstraße 23",
      "country": "Germany"
    },
    "style": "commercial",
    "link": {
      "url": "https://www.maschinendorf.de",
      "text": "maschinendorf.de"
    }
  },


  {
    "name": "TüftelLab Neuss",
    "loc": {
      "lat": 51.2013193,
      "long": 6.6868142,
      "plz": 41460,
      "city": "Neuss",
      "street": "Krefelder Str. 55",
      "country": "Germany"
    },
    "style": "only for youth",
    "link": {
      "url": "https://tueftellab.de/makerspace/rhein-kreis-neuss",
      "text": "tueftellab.de"
    }
  },


  {
    "name": "fnordeingang Hackerspace",
    "loc": {
      "lat": 51.1862405,
      "long": 6.6926407,
      "plz": 41464,
      "city": "Neuss",
      "street": "Körnerstraße 72",
      "country": "Germany"
    },
    "style": "for all",
    "link": {
      "url": "https://www.fnordeingang.de",
      "text": "fnordeingang.de"
    }
  },


  {
    "name": "/dev/tal e.V.",
    "loc": {
      "lat": 51.2669778,
      "long": 7.1457854,
      "plz": 42105,
      "city": "Wuppertal",
      "street": "Mirker Strasse 48a",
      "country": "Germany"
    },
    "style": "for all",
    "link": {
      "url": "https://www.devtal.de",
      "text": "devtal.de"
    }
  },


  {
    "name": "DevLab-TSA e.V.",
    "loc": {
      "lat": 51.2894156,
      "long": 7.2323595,
      "plz": 42279,
      "city": "Wuppertal",
      "street": "Mählersbeck 1",
      "country": "Germany"
    },
    "style": "for all",
    "link": {
      "url": "https://www.devlab.nrw",
      "text": "devlab.nrw"
    }
  },


  {
    "name": "RUB-Makerspace",
    "loc": {
      "lat": 51.4654434,
      "long": 7.2597076,
      "plz": 44803,
      "city": "Bochum",
      "street": "Suttner-Nobel-Allee 4",
      "country": "Germany"
    },
    "style": "for all",
    "link": {
      "url": "https://makerspace.ruhr-uni-bochum.de",
      "text": "makerspace.ruhr-uni-bochum.de"
    }
  },


  {
    "name": "Chaospott",
    "loc": {
      "lat": 51.4385497,
      "long": 7.0250623,
      "plz": 45136,
      "city": "Essen",
      "street": "Sibyllastr. 9 (Hinterhof)",
      "country": "Germany"
    },
    "style": "for all",
    "link": {
      "url": "https://chaospott.de",
      "text": "chaospott.de"
    }
  },


  {
    "name": "HRW-FabLab",
    "loc": {
      "lat": 51.5331482,
      "long": 6.9324461,
      "plz": 46236,
      "city": "Bottrop",
      "street": "Am Vietshof 2-4",
      "country": "Germany"
    },
    "style": "only for students // commercial",
    "link": {
      "url": "https://hrw-fablab.de",
      "text": "hrw-fablab.de"
    }
  },


  {
    "name": "Makerspace Bocholt",
    "loc": {
      "lat": 51.8385327,
      "long": 6.6037374,
      "plz": 46399,
      "city": "Bocholt",
      "street": "Westend 31",
      "country": "Germany"
    },
    "style": "for all",
    "link": {
      "url": "https://www.makerspace-bocholt.de",
      "text": "makerspace-bocholt.de"
    }
  },


  {
    "name": "bastelbude dinslaken",
    "loc": {
      "lat": 51.5728623,
      "long": 6.7600835,
      "plz": 46539,
      "city": "Dinslaken",
      "street": "Ziegelstrasse 122",
      "country": "Germany"
    },
    "style": "for all",
    "link": {
      "url": "https://bastelbude.grade.de",
      "text": "bastelbude.grade.de"
    }
  },


  {
    "name": "FabLab Kamp-Lintfort",
    "loc": {
      "lat": 51.5002542,
      "long": 6.5456018,
      "plz": 47475,
      "city": "Kamp-Lintfort",
      "street": "Friedrich-Heinrich-Allee 25",
      "country": "Germany"
    },
    "style": "for all",
    "link": {
      "url": "https://fablab.hochschule-rhein-waal.de",
      "text": "fablab.hochschule-rhein-waal.de"
    }
  },


  {
    "name": "Makerspace Bocholt",
    "loc": {
      "lat": 51.3170762,
      "long": 6.5697306,
      "plz": 47805,
      "city": "Krefeld",
      "street": "Ondereyckstraße 2",
      "country": "Germany"
    },
    "style": "for all",
    "link": {
      "url": "https://www.hs-niederrhein.de/makerspace",
      "text": "hs-niederrhein.de/makerspace"
    }
  },


  {
    "name": "FabLab Münster",
    "loc": {
      "lat": 51.9521985,
      "long": 7.6404866,
      "plz": 48155,
      "city": "Münster",
      "street": "Hafenweg 16",
      "country": "Germany"
    },
    "style": "for all",
    "link": {
      "url": "https://www.digitalhub.ms/fablab",
      "text": "digitalhub.ms/fablab"
    }
  },


  {
    "name": "Makerspace FH Münster",
    "loc": {
      "lat": 52.1431977,
      "long": 7.3234219,
      "plz": 48565,
      "city": "Steinfurt",
      "street": "Stegerwaldstraße 39",
      "country": "Germany"
    },
    "style": "only for students",
    "link": {
      "url": "https://www.fh-muenster.de/de/makerspace",
      "text": "muenster.de/de/makerspace"
    }
  },


  {
    "name": "Makerspace TH Köln",
    "loc": {
      "lat": 50.9349146,
      "long": 6.9881421,
      "plz": 50679,
      "city": "Köln",
      "street": "Betzdorfer Straße 2",
      "country": "Germany"
    },
    "style": "only for students",
    "link": {
      "url": "https://www.th-koeln.de/forschung/makerspace-und-mini-inkubatoren_77114.php",
      "text": "https://www.th-koeln.de"
    }
  },


  {
    "name": "Chaos Computer Club Cologne e.V.",
    "loc": {
      "lat": 50.9503949,
      "long": 6.9129535,
      "plz": 50825,
      "city": "Köln",
      "street": "Heliosstraße 6a",
      "country": "Germany"
    },
    "style": "for all",
    "link": {
      "url": "https://koeln.ccc.de",
      "text": "koeln.ccc.de"
    }
  },


  {
    "name": "RoboScope - Schülerlabor an der RWTH",
    "loc": {
      "lat": 50.7818162,
      "long": 6.0468808,
      "plz": 52074,
      "city": "Aachen",
      "street": "Campus-Boulevard 30",
      "country": "Germany"
    },
    "style": "only for youth",
    "link": {
      "url": "https://www.roboscope.rwth-aachen.de",
      "text": "roboscope.rwth-aachen.de"
    }
  },


  {
    "name": "Roboterclub Aachen",
    "loc": {
      "lat": 50.7793183,
      "long": 6.0628171,
      "plz": 52074,
      "city": "Aachen",
      "street": "Kopernikusstraße 16",
      "country": "Germany"
    },
    "style": "only for students",
    "link": {
      "url": "https://www.roboterclub.rwth-aachen.de",
      "text": "roboterclub.rwth-aachen.de"
    }
  },


  {
    "name": "Makerspace Bonn",
    "loc": {
      "lat": 50.6981704,
      "long": 7.1450146,
      "plz": 53175,
      "city": "Bonn",
      "street": "Kennedyallee 18",
      "country": "Germany"
    },
    "style": "for all",
    "link": {
      "url": "https://www.makerspacebonn.de",
      "text": "makerspacebonn.de"
    }
  },


  {
    "name": "Makerspace Wittlich",
    "loc": {
      "lat": 49.9865645,
      "long": 6.8880852,
      "plz": 54516,
      "city": "Wittlich",
      "street": "Neustraße 6",
      "country": "Germany"
    },
    "style": "for all",
    "link": {
      "url": "http://www.makerspace.wittlich.de",
      "text": "makerspace.wittlich.de"
    }
  },


  {
    "name": "Space Mayen-Koblenz",
    "loc": {
      "lat": 50.4214156,
      "long": 7.5751553,
      "plz": 56170,
      "city": "Bendorf",
      "street": "Untere Vallendarer Straße 26",
      "country": "Germany"
    },
    "style": "for all",
    "link": {
      "url": "https://www.makerspace-myk.de",
      "text": "makerspace-myk.de"
    }
  },


  {
    "name": "Fab Lab Siegen",
    "loc": {
      "lat": 50.8760889,
      "long": 8.0219029,
      "plz": 57072,
      "city": "Siegen",
      "street": "Sandstraße 26",
      "country": "Germany"
    },
    "style": "for all",
    "link": {
      "url": "https://fablab-siegen.de",
      "text": "fablab-siegen.de"
    }
  },


  {
    "name": "Hasi e.V.",
    "loc": {
      "lat": 50.8689171,
      "long": 8.0044810,
      "plz": 57072,
      "city": "Siegen",
      "street": "Effertsufer 104",
      "country": "Germany"
    },
    "style": "for all",
    "link": {
      "url": "https://ha.si",
      "text": "ha.si"
    }
  },


  {
    "name": "FabLab Hamm-Westfalen",
    "loc": {
      "lat": 51.6723493,
      "long": 7.8069204,
      "plz": 59067,
      "city": "Hamm",
      "street": "Banningstraße 15",
      "country": "Germany"
    },
    "style": "for all",
    "link": {
      "url": "https://fablab-hamm.de",
      "text": "fablab-hamm.de"
    }
  },



  {
    "name": "Makerspace Hanau",
    "loc": {
      "lat": 50.1352742,
      "long": 8.9175025,
      "plz": 63450,
      "city": "Hanau",
      "street": "Am Markt 14-18",
      "country": "Germany"
    },
    "style": "for all",
    "link": {
      "url": "https://www.kulturforum-hanau.de/angebote/49944/index.html",
      "text": "kulturforum-hanau.de"
    }
  },

  
  {
    "name": "Makerspace Darmstadt",
    "loc": {
      "lat": 49.8802245,
      "long": 8.6325583,
      "plz": 64293,
      "city": "Darmstadt",
      "street": "Mainzer Straße 74",
      "country": "Germany"
    },
    "style": "for all",
    "link": {
      "url": "https://www.makerspace-darmstadt.de",
      "text": "makerspace-darmstadt.de"
    }
  },


  {
    "name": "Makerspace Wiesbaden",
    "loc": {
      "lat": 50.0555848,
      "long": 8.3085765,
      "plz": 65205,
      "city": "Wiesbaden",
      "street": "Wandersmannstrasse 60",
      "country": "Germany"
    },
    "style": "for all",
    "link": {
      "url": "https://www.makerspace-wi.de",
      "text": "makerspace-wi.de"
    }
  },


  {
    "name": "Ideenw3rk Ludwigshafen",
    "loc": {
      "lat": 49.4808814,
      "long": 8.4486120,
      "plz": 67059,
      "city": "Ludwigshafen",
      "street": "Bismarckstraße 44-48",
      "country": "Germany"
    },
    "style": "for all",
    "link": {
      "url": "https://www.ideenw3rk.de",
      "text": "ideenw3rk.de"
    }
  },


  {
    "name": "Makerspace Rhein-Neckar",
    "loc": {
      "lat": 49.7520597,
      "long": 8.4526774,
      "plz": 67065,
      "city": "Ludwigshafen am Rhein",
      "street": "Am Bubenpfad 2",
      "country": "Germany"
    },
    "style": "for all",
    "link": {
      "url": "https://makerspace-rheinneckar.de",
      "text": "makerspace-rheinneckar.de"
    }
  },


  {
    "name": "U.10 Makerspace in der vhs",
    "loc": {
      "lat": 49.6277619,
      "long": 8.3563924,
      "plz": 67547,
      "city": "Worms",
      "street": "Willy-Brandt-Ring 11",
      "country": "Germany"
    },
    "style": "for all",
    "link": {
      "url": "https://u10.makercloud.de",
      "text": "u10.makercloud.de"
    }
  },


  {
    "name": "RaumZeitLabor",
    "loc": {
      "lat": 49.5074119,
      "long": 8.5206333,
      "plz": 68309,
      "city": "Mannheim",
      "street": "Weinheimer Strasse 58-60",
      "country": "Germany"
    },
    "style": "for all",
    "link": {
      "url": "https://raumzeitlabor.de",
      "text": "raumzeitlabor.de"
    }
  },


  {
    "name": "CoMakingSpace",
    "loc": {
      "lat": 49.4082468,
      "long": 8.6465979,
      "plz": 69123,
      "city": "Heidelberg",
      "street": "Siemensstraße 40",
      "country": "Germany"
    },
    "style": "for all",
    "link": {
      "url": "https://www.comakingspace.org",
      "text": "comakingspace.org"
    }
  },


  {
    "name": "Friedrich-Realschule Makerspace",
    "loc": {
      "lat": 49.5604562,
      "long": 8.6689824,
      "plz": 69469,
      "city": "Weinheim",
      "street": "Bergstraße 70",
      "country": "Germany"
    },
    "style": "only for youth",
    "link": {
      "url": "https://www.frsweinheim.de/index.php/schule/makerspace",
      "text": "frsweinheim.de"
    }
  },


  {
    "name": "HOBBYHIMMEL",
    "loc": {
      "lat": 48.8186647,
      "long": 9.1697130,
      "plz": 70469,
      "city": "Stuttgart",
      "street": "Siemensstraße 140b",
      "country": "Germany"
    },
    "style": "for all",
    "link": {
      "url": "https://hobbyhimmel.de",
      "text": "hobbyhimmel.de"
    }
  },


{
  "name": "Makerspace - Hochschule d. Medien",
  "loc": {
    "lat": 48.7419217,
    "long": 9.1007603,
    "plz": 70569,
    "city": "Stuttgart",
    "street": "Nobelstraße 10",
    "country": "Germany"
  },
  "style": "only for students",
  "link": {
    "url": "https://www.hdm-stuttgart.de/makerspace",
    "text": "hdm-stuttgart.de/makerspace"
  }
},


  {
    "name": "AEROSPACE LAB",
    "loc": {
      "lat": 48.5947405,
      "long": 8.8563196,
      "plz": 71083,
      "city": "Herrenberg",
      "street": "Berliner Straße 1",
      "country": "Germany"
    },
    "style": "only for youth",
    "link": {
      "url": "https://aerospace-lab.de",
      "text": "aerospace-lab.de"
    }
  },


  {
    "name": "MakEd_digital",
    "loc": {
      "lat": 48.9095854,
      "long": 9.1828659,
      "plz": 71634,
      "city": "Ludwigsburg",
      "street": "Reuteallee 46",
      "country": "Germany"
    },
    "style": "only for students",
    "link": {
      "url": "https://www.maked-digital.de",
      "text": "maked-digital.de"
    }
  },


  {
    "name": "Tinkertank",
    "loc": {
      "lat": 48.8918928,
      "long": 9.1841940,
      "plz": 71636,
      "city": "Ludwigsburg",
      "street": "Pflugfelder Straße 23",
      "country": "Germany"
    },
    "style": "for all",
    "link": {
      "url": "https://www.tinkertank.de",
      "text": "tinkertank.de"
    }
  },


  {
    "name": "FabLab Neckar-Alb e.V.",
    "loc": {
      "lat": 48.5156939,
      "long": 9.0630645,
      "plz": 72072,
      "city": "Tübingen",
      "street": "Ulrichstr. 1",
      "country": "Germany"
    },
    "style": "for all",
    "link": {
      "url": "https://www.fablab-neckar-alb.org",
      "text": "fablab-neckar-alb.org"
    }
  },


  {
    "name": "FRANZ!werk",
    "loc": {
      "lat": 48.5117638,
      "long": 9.0751247,
      "plz": 72072,
      "city": "Tübingen",
      "street": "Bei den Pferdeställen 8",
      "country": "Germany"
    },
    "style": "for all",
    "link": {
      "url": "https://franzwerk-tuebingen.de",
      "text": "franzwerk-tuebingen.de"
    }
  },


  {
    "name": "KI-Makerspace",
    "loc": {
      "lat": 48.5179418,
      "long": 9.0611375,
      "plz": 72072,
      "city": "Tübingen",
      "street": "Wöhrdstraße 25",
      "country": "Germany"
    },
    "style": "only for youth",
    "link": {
      "url": "https://ki-maker.space",
      "text": "ki-maker.space"
    }
  },


  {
    "name": "Werkstadthaus",
    "loc": {
      "lat": 48.5103000,
      "long": 9.0784016,
      "plz": 72072,
      "city": "Tübingen",
      "street": "Aixer Straße 72",
      "country": "Germany"
    },
    "style": "for all",
    "link": {
      "url": "https://www.werkstadthaus.de",
      "text": "werkstadthaus.de"
    }
  },


  {
    "name": "SonnenLab",
    "loc": {
      "lat": 48.5625724,
      "long": 8.4853851,
      "plz": 72297,
      "city": "Seewald",
      "street": "Buchenweg 8",
      "country": "Germany"
    },
    "style": "for all",
    "link": {
      "url": "https://lab.sonnenwald.org",
      "text": "lab.sonnenwald.org"
    }
  },


  {
    "name": "makeRTreff Reutlingen",
    "loc": {
      "lat": 48.4989448,
      "long": 9.2035208,
      "plz": 72760,
      "city": "Reutlingen",
      "street": "Gustav-Wagner-Straße 11",
      "country": "Germany"
    },
    "style": "for all",
    "link": {
      "url": "https://makertreff.com",
      "text": "makertreff.com"
    }
  },


  {
    "name": "Univ. Stuttgart - Universum",
    "loc": {
      "lat": 48.7460948,
      "long": 9.1035644,
      "plz": 70569,
      "city": "Stuttgart",
      "street": "Pfaffenwaldring 45",
      "country": "Germany"
    },
    "style": "only for students",
    "link": {
      "url": "https://www.tik.uni-stuttgart.de/forschung-und-lehre/makerspace",
      "text": "tik.uni-stuttgart.de"
    }
  },


  {
    "name": "Essembly",
    "loc": {
      "lat": 48.7414977,
      "long": 9.3119614,
      "plz": 73728,
      "city": "Esslingen am Neckar",
      "street": "Milchstraße 17",
      "country": "Germany"
    },
    "style": "for all",
    "link": {
      "url": "https://essembly.de",
      "text": "essembly.de"
    }
  },


  {
    "name": "Maker Space experimenta",
    "loc": {
      "lat": 49.1437552,
      "long": 9.2149291,
      "plz": 74072,
      "city": "Heilbronn",
      "street": "Experimenta-Platz",
      "country": "Germany"
    },
    "style": "for all",
    "link": {
      "url": "https://makerspace.experimenta.science",
      "text": "makerspace.experimenta.science"
    }
  },


  {
    "name": "FabLab Neuenstadt",
    "loc": {
      "lat": 49.2370860,
      "long": 9.3362978,
      "plz": 74196,
      "city": "Neuenstadt am Kocher",
      "street": "Öhringer Str. 24",
      "country": "Germany"
    },
    "style": "for all",
    "link": {
      "url": "https://www.fablab-neuenstadt.de",
      "text": "fablab-neuenstadt.de"
    }
  },


  {
    "name": "C-Hack",
    "loc": {
      "lat": 48.7134887,
      "long": 8.7383220,
      "plz": 75365,
      "city": "Calw",
      "street": "Im Zwinger 4",
      "country": "Germany"
    },
    "style": "for all",
    "link": {
      "url": "https://c-hack.de",
      "text": "c-hack.de"
    }
  },


  {
    "name": "FabLab Karlsruhe",
    "loc": {
      "lat": 49.0047362,
      "long": 8.4291871,
      "plz": 76131,
      "city": "Karlsruhe",
      "street": "Alter Schlachthof 25a",
      "country": "Germany"
    },
    "style": "for all",
    "link": {
      "url": "https://fablab-karlsruhe.de",
      "text": "fablab-karlsruhe.de"
    }
  },


  {
    "name": "Entropia e.V.",
    "loc": {
      "lat": 49.0068805,
      "long": 8.4071734,
      "plz": 76133,
      "city": "Karlsruhe",
      "street": "Steinstraße 23",
      "country": "Germany"
    },
    "style": "for all",
    "link": {
      "url": "https://entropia.de",
      "text": "entropia.de"
    }
  },


  {
    "name": "BÄMlab im ZKM",
    "loc": {
      "lat": 49.0013440,
      "long": 8.3839439,
      "plz": 76135,
      "city": "Karlsruhe",
      "street": "Lorenzstraße 19",
      "country": "Germany"
    },
    "style": "for all",
    "link": {
      "url": "https://zkm.de/de/suche?search=B%C3%84Mlab",
      "text": "zkm.de"
    }
  },


  {
    "name": "FabLab Bruchsal",
    "loc": {
      "lat": 49.1682700,
      "long": 8.6204634,
      "plz": 76698,
      "city": "Ubstadt-Weiher",
      "street": "Bahnhofstraße 2",
      "country": "Germany"
    },
    "style": "for all",
    "link": {
      "url": "https://fablab-bruchsal.de",
      "text": "fablab-bruchsal.de"
    }
  },


  {
    "name": "Makerspace HS Offenburg",
    "loc": {
      "lat": 48.4576465,
      "long": 7.9423574,
      "plz": 77652,
      "city": "Offenburg",
      "street": "Badstraße 24",
      "country": "Germany"
    },
    "style": "for all",
    "link": {
      "url": "https://emi.hs-offenburg.de/fakultaet-elektrotechnik-medizintechnik-und-informatik/labore/edu-fablab-hso",
      "text": "emi.hs-offenburg.de"
    }
  },


  {
    "name": "hacKNology e.V.",
    "loc": {
      "lat": 47.6593908,
      "long": 9.1659670,
      "plz": 78462,
      "city": "Konstanz",
      "street": "Schulthaißstraße 19",
      "country": "Germany"
    },
    "style": "for all",
    "link": {
      "url": "https://www.hacknology.de",
      "text": "hacknology.de"
    }
  },


{
  "name": "Innovationswerkstatt Konstanz",
  "loc": {
    "lat": 47.6588972,
    "long": 9.1663681,
    "plz": 78462,
    "city": "Konstanz",
    "street": "Blarerstraße 56",
    "country": "Germany"
  },
  "style": "commercial",
  "link": {
    "url": "https://www.innovationswerkstatt.org",
    "text": "innovationswerkstatt.org"
  }
},


  {
    "name": "FabLab Konstanz",
    "loc": {
      "lat": 47.6900375,
      "long": 9.1876305,
      "plz": 78464,
      "city": "Konstanz",
      "street": "Universitätsstraße 10",
      "country": "Germany"
    },
    "style": "for all",
    "link": {
      "url": "https://www.uni-konstanz.de/universitaetsentwicklung-forschung-und-transfer/wissens-und-technologietransfer-wtt/fablab-konstanz/",
      "text": "uni-konstanz.de"
    }
  },


  {
    "name": "innolab bodensee",
    "loc": {
      "lat": 47.6759407,
      "long": 9.1688982,
      "plz": 78467,
      "city": "Konstanz",
      "street": "Bücklestraße 3b",
      "country": "Germany"
    },
    "style": "commercial",
    "link": {
      "url": "https://www.innolab-bodensee.de",
      "text": "innolab-bodensee.de"
    }
  },


  {
    "name": "Werkstatt am Seerhein",
    "loc": {
      "lat": 47.6716647,
      "long": 9.1589756,
      "plz": 78467,
      "city": "Konstanz",
      "street": "Am Seerhein 6",
      "country": "Germany"
    },
    "style": "commercial",
    "link": {
      "url": "https://werkstatt-kn.de",
      "text": "werkstatt-kn.de"
    }
  },


  {
    "name": "Freilab",
    "loc": {
      "lat": 48.0092550,
      "long": 7.8281109,
      "plz": 79110,
      "city": "Freiburg im Breisgau",
      "street": "Ensisheimer Str. 4",
      "country": "Germany"
    },
    "style": "for all",
    "link": {
      "url": "https://freilab.de",
      "text": "freilab.de"
    }
  },


  {
    "name": "FabLab München e.V.",
    "loc": {
      "lat": 48.1371436,
      "long": 11.5341577,
      "plz": 80339,
      "city": "München",
      "street": "Gollierstraße 70",
      "country": "Germany"
    },
    "style": "for all",
    "link": {
      "url": "https://freilab.de",
      "text": "freilab.de"
    }
  },


  {
    "name": "Munich Maker Lab",
    "loc": {
      "lat": 48.1589395,
      "long": 11.5500795,
      "plz": 80636,
      "city": "München",
      "street": "Dachauer Str. 112h",
      "country": "Germany"
    },
    "style": "for all",
    "link": {
      "url": "https://www.munichmakerlab.de",
      "text": "munichmakerlab.de"
    }
  },


  {
    "name": "WerkBox³",
    "loc": {
      "lat": 48.1584708,
      "long": 11.5504107,
      "plz": 80636,
      "city": "München",
      "street": "Dachauer Straße 110c",
      "country": "Germany"
    },
    "style": "for all",
    "link": {
      "url": "https://www.werkbox3.de",
      "text": "werkbox3.de"
    }
  },


  {
    "name": "c.lab - Makerspace",
    "loc": {
      "lat": 48.1563287,
      "long": 11.5567005,
      "plz": 80797,
      "city": "München",
      "street": "Lothstraße 21",
      "country": "Germany"
    },
    "style": "only for students",
    "link": {
      "url": "https://clab-hm.de",
      "text": "clab-hm.de"
    }
  },


  {
    "name": "Makerspace München",
    "loc": {
      "lat": 48.1608454,
      "long": 11.5524567,
      "plz": 80797,
      "city": "München",
      "street": "Freddie-Mercury-Straße 5",
      "country": "Germany"
    },
    "style": "for all",
    "link": {
      "url": "https://www.maker-space.de",
      "text": "maker-space.de"
    }
  },


  {
    "name": "TüftelLab München",
    "loc": {
      "lat": 48.1570606,
      "long": 11.5514604,
      "plz": 80797,
      "city": "München",
      "street": "Freddie-Mercury-Straße 5",
      "country": "Germany"
    },
    "style": "only for youth",
    "link": {
      "url": "https://tueftellab.de/makerspace/muenchen",
      "text": "tueftellab.de"
    }
  },


  {
    "name": "Erfindergarden",
    "loc": {
      "lat": 48.1309241,
      "long": 11.5918795,
      "plz": 81667,
      "city": "München",
      "street": "Rosenheimer Str. 5",
      "country": "Germany"
    },
    "style": "for all",
    "link": {
      "url": "https://erfindergarden.de",
      "text": "erfindergarden.de"
    }
  },


  {
    "name": "Nachbarschaftswerk wagnis e.V.",
    "loc": {
      "lat": 48.1302353,
      "long": 11.7001701,
      "plz": 81829,
      "city": "München",
      "street": "Heinrich-Böll-Straße 69",
      "country": "Germany"
    },
    "style": "for all",
    "link": {
      "url": "https://nachbarschaftswerkwagnis.org",
      "text": "nachbarschaftswerkwagnis.org"
    }
  },


  {
    "name": "Offene Werkstatt Gilching",
    "loc": {
      "lat": 48.1089627,
      "long": 11.3005398,
      "plz": 82205,
      "city": "Gilching",
      "street": "Römerstraße 28",
      "country": "Germany"
    },
    "style": "for all",
    "link": {
      "url": "https://www.offene-werkstatt-gilching.de",
      "text": "offene-werkstatt-gilching.de"
    }
  },


  {
    "name": "MakerLab Murnau e.V.",
    "loc": {
      "lat": 47.6735585,
      "long": 11.2066981,
      "plz": 82418,
      "city": "Murnau am Staffelsee",
      "street": "James-Loeb-Straße 11,  ",
      "country": "Germany"
    },
    "style": "for all",
    "link": {
      "url": "https://makerlab-murnau.de",
      "text": "makerlab-murnau.de"
    }
  },


  {
    "name": "RO-LIP",
    "loc": {
      "lat": 47.8674772,
      "long": 12.1072482,
      "plz": 83024,
      "city": "Rosenheim",
      "street": "Hochschulstraße 1",
      "country": "Germany"
    },
    "style": "only for students",
    "link": {
      "url": "https://ro-lip.th-rosenheim.de",
      "text": "ro-lip.th-rosenheim.de"
    }
  },


  {
    "name": "Oberlab",
    "loc": {
      "lat": 47.7504505,
      "long": 11.7376338,
      "plz": 83703,
      "city": "Gmund am Tegernsee",
      "street": "Tölzer Straße 3a",
      "country": "Germany"
    },
    "style": "for all",
    "link": {
      "url": "https://oberlab.de",
      "text": "oberlab.de"
    }
  },


  {
    "name": "brigk Makerspace",
    "loc": {
      "lat": 48.7651278,
      "long": 11.4343439,
      "plz": 85049,
      "city": "Ingolstadt",
      "street": "Schloßlände 26",
      "country": "Germany"
    },
    "style": "commercial",
    "link": {
      "url": "https://www.brigk.digital/brigk-makerspace",
      "text": "brigk.digital/brigk-makerspace"
    }
  },


  {
    "name": "MakerSpace EBE",
    "loc": {
      "lat": 48.0737053,
      "long": 11.9075329,
      "plz": 85614,
      "city": "Kirchseeon",
      "street": "Am Hirtenfeld 11",
      "country": "Germany"
    },
    "style": "for all",
    "link": {
      "url": "https://makerspace-ebe.de",
      "text": "makerspace-ebe.de"
    }
  },


  {
    "name": "FabLab Allgäu",
    "loc": {
      "lat": 47.7294584,
      "long": 10.3122255,
      "plz": 87439,
      "city": "Kempten im Allgäu",
      "street": "Landwehrstraße 2",
      "country": "Germany"
    },
    "style": "for all",
    "link": {
      "url": "https://www.fablab-allgaeu.de",
      "text": "fablab-allgaeu.de"
    }
  },


  {
    "name": "Makerspace Garching",
    "loc": {
      "lat": 48.2683205,
      "long": 11.6660252,
      "plz": 85748,
      "city": "Garching bei München",
      "street": "Lichtenbergstraße 6",
      "country": "Germany"
    },
    "style": "for all",
    "link": {
      "url": "https://www.maker-space.de",
      "text": "maker-space.de"
    }
  },


  {
    "name": "dgtal Lab",
    "loc": {
      "lat": 47.7838528,
      "long": 9.6114344,
      "plz": 88212,
      "city": "Ravensburg",
      "street": "Charlottenstraße 19-21",
      "country": "Germany"
    },
    "style": "only for youth",
    "link": {
      "url": "https://www.dgtal.de",
      "text": "dgtal.de"
    }
  },


  {
    "name": "Creapolis-Wangen e.V.",
    "loc": {
      "lat": 47.6970405,
      "long": 9.8522212,
      "plz": 88239,
      "city": "Wangen im Allgäu",
      "street": "Am Hang 8",
      "country": "Germany"
    },
    "style": "for all",
    "link": {
      "url": "https://creapolis-wangen.de",
      "text": "creapolis-wangen.de"
    }
  },


  {
    "name": "H.O.M.E. Weingarten",
    "loc": {
      "lat": 47.8104865,
      "long": 9.6481626,
      "plz": 88250,
      "city": "Weingarten",
      "street": "Doggenriedstraße 20",
      "country": "Germany"
    },
    "style": "for all",
    "link": {
      "url": "https://home.rwu.de",
      "text": "home.rwu.de"
    }
  },


  {
    "name": "Freiraum",
    "loc": {
      "lat": 48.4005227,
      "long": 9.991260,
      "plz": 89073,
      "city": "Ulm",
      "street": "Platzgasse 18",
      "country": "Germany"
    },
    "style": "for all",
    "link": {
      "url": "https://frrm.de",
      "text": "frrm.de"
    }
  },


  {
    "name": "Verschwörhaus Ulm",
    "loc": {
      "lat": 48.3964469,
      "long": 9.9904377,
      "plz": 89073,
      "city": "Ulm",
      "street": "Weinhof 9",
      "country": "Germany"
    },
    "style": "for all",
    "link": {
      "url": "https://www.verschwoerhaus.de",
      "text": "verschwoerhaus.de"
    }
  },


  {
    "name": "Univ. Ulm - Student Lab",
    "loc": {
      "lat": 48.4199119,
      "long": 9.9467254,
      "plz": 89081,
      "city": "Ulm",
      "street": "Albert-Einstein-Allee 11, Raum 43.1.106",
      "country": "Germany"
    },
    "style": "only for students",
    "link": {
      "url": "https://wiki.fs-et.de/student-lab",
      "text": "wiki.fs-et.de/student-lab"
    }
  },


  {
    "name": "Temporärhaus",
    "loc": {
      "lat": 48.3962981,
      "long": 10.0020026,
      "plz": 89231,
      "city": "Neu-Ulm",
      "street": "Augsburger Straße 23-25",
      "country": "Germany"
    },
    "style": "for all",
    "link": {
      "url": "https://temporaerhaus.de",
      "text": "temporaerhaus.de"
    }
  },


  {
    "name": "K4CG",
    "loc": {
      "lat": 49.4481177,
      "long": 11.0816744,
      "plz": 90402,
      "city": "Nürnberg",
      "street": "Königstraße 93",
      "country": "Germany"
    },
    "style": "for all",
    "link": {
      "url": "hthttps://k4cg.org",
      "text": "k4cg.org"
    }
  },


  {
    "name": "FabLab Landkreis Fürth e. V.",
    "loc": {
      "lat": 49.5111321,
      "long": 10.8793421,
      "plz": 90587,
      "city": "Veitsbronn",
      "street": "Siegelsdorfer Straße 24",
      "country": "Germany"
    },
    "style": "for all",
    "link": {
      "url": "https://www.fablab-fuerth.org",
      "text": "fablab-fuerth.org"
    }
  },


  {
    "name": "Fab Lab Region Nürnberg",
    "loc": {
      "lat": 49.4376640,
      "long": 10.9926694,
      "plz": 90763,
      "city": "Fürth",
      "street": "Schwabacher Straße 512",
      "country": "Germany"
    },
    "style": "for all",
    "link": {
      "url": "https://www.fablab-nuernberg.de",
      "text": "fablab-nuernberg.de"
    }
  },


  {
    "name": "Werk Eins Makerspace",
    "loc": {
      "lat": 49.4381285,
      "long": 10.9932841,
      "plz": 90763,
      "city": "Fürth",
      "street": "Schwabacher-Straße 510",
      "country": "Germany"
    },
    "style": "commercial",
    "link": {
      "url": "https://werk-eins.com",
      "text": "werk-eins.com"
    }
  },


  {
    "name": "FAU FabLab",
    "loc": {
      "lat": 49.5741987,
      "long": 11.0301147,
      "plz": 91058,
      "city": "Erlangen",
      "street": "Erwin-Rommel-Straße 60",
      "country": "Germany"
    },
    "style": "only for students",
    "link": {
      "url": "https://fablab.fau.de",
      "text": "fablab.fau.de"
    }
  },


  {
    "name": "FabLab Nürnberger Land e.V.",
    "loc": {
      "lat": 49.5581655,
      "long": 11.3412260,
      "plz": 91220,
      "city": "Schnaittach",
      "street": "Birkensteingasse 3",
      "country": "Germany"
    },
    "style": "for all",
    "link": {
      "url": "https://fablab.nueland.de",
      "text": "fablab.nueland.de"
    }
  },


  {
    "name": "FabLab Region Rothenburg",
    "loc": {
      "lat": 49.3783607,
      "long": 10.1779903,
      "plz": 91541,
      "city": "Rothenburg ob der Tauber",
      "street": "Deutschherrngasse 1",
      "country": "Germany"
    },
    "style": "for all",
    "link": {
      "url": "http://www.fablab-rothenburg.de",
      "text": "fablab-rothenburg.de"
    }
  },


  {
    "name": "Binary Kitchen",
    "loc": {
      "lat": 49.0098221,
      "long": 12.1189611,
      "plz": 93053,
      "city": "Regensburg",
      "street": "Walderdorffstraße 13b",
      "country": "Germany"
    },
    "style": "for all",
    "link": {
      "url": "https://www.binary-kitchen.de",
      "text": "binary-kitchen.de"
    }
  },


  {
    "name": "MINT-Labs Regensburg",
    "loc": {
      "lat": 49.0002471,
      "long": 12.1042628,
      "plz": 93053,
      "city": "Regensburg",
      "street": "Rudolf-Vogt-Straße 18",
      "country": "Germany"
    },
    "style": "only for students & youth",
    "link": {
      "url": "https://www.mint-labs-regensburg.de",
      "text": "mint-labs-regensburg.de"
    }
  },


  {
    "name": "Regensburger Schülerlabor RSL",
    "loc": {
      "lat": 48.9961667,
      "long": 12.0940905,
      "plz": 93053,
      "city": "Regensburg",
      "street": "Tiefstraße W",
      "country": "Germany"
    },
    "style": "only for youth",
    "link": {
      "url": "https://www.uni-regensburg.de/physik/regensburger-schuelerlabor",
      "text": "uni-regensburg.de"
    }
  },


  {
    "name": "planraum",
    "loc": {
      "lat": 49.0162487,
      "long": 12.1309313,
      "plz": 93055,
      "city": "Regensburg",
      "street": "Auweg 42a",
      "country": "Germany"
    },
    "style": "for all",
    "link": {
      "url": "http://planraum.org",
      "text": "planraum.org"
    }
  },


  {
    "name": "Technik für Kinder e.V.",
    "loc": {
      "lat": 48.8378190,
      "long": 12.9481793,
      "plz": 94469,
      "city": "Deggendorf",
      "street": "Schwaigerbreite 17",
      "country": "Germany"
    },
    "style": "only for youth",
    "link": {
      "url": "https://www.technik-kinder.de",
      "text": "technik-kinder.de"
    }
  },


  {
    "name": "CREAPOLIS Makerspace",
    "loc": {
      "lat": 50.2538682,
      "long": 10.9595537,
      "plz": 96450,
      "city": "Coburg",
      "street": "Schlachthofstr. 1",
      "country": "Germany"
    },
    "style": "for all",
    "link": {
      "url": "https://www.hs-coburg.de/hochschule/organisation/servicestellen/referat-transfer-entrepreneurship/creapolis-makerspace",
      "text": "hs-coburg.de"
    }
  },


  {
    "name": "UNIKAT",
    "loc": {
      "lat": 50.6828046,
      "long": 10.9396706,
      "plz": 98693,
      "city": "Ilmenau",
      "street": "Gustav-Kirchhoff-Platz/ Kirchhoffbau",
      "country": "Germany"
    },
    "style": "only for students & youth",
    "link": {
      "url": "https://www.tu-ilmenau.de/universitaet/quicklinks/zentralinstitut-fuer-bildung/angebote/unikat",
      "text": "tu-ilmenau.de"
    }
  },


  {
    "name": "Makerspace Erfurt",
    "loc": {
      "lat": 50.9829399,
      "long": 11.0400019,
      "plz": 99085,
      "city": "Erfurt",
      "street": "Liebknechtstraße 8",
      "country": "Germany"
    },
    "style": "for all",
    "link": {
      "url": "https://old.makerspace-erfurt.de",
      "text": "old.makerspace-erfurt.de"
    }
  },


  {
    "name": "Metalab",
    "loc": {
      "lat": 48.2094862,
      "long": 16.3561031,
      "plz": 1010,
      "city": "Wien",
      "street": "Rathausstraße 6",
      "country": "Austria"
    },
    "style": "",
    "link": {
      "url": "https://metalab.at",
      "text": "metalab.at"
    }
  },


  {
    "name": "Happylab Wien",
    "loc": {
      "lat": 48.2194148,
      "long": 16.4067915,
      "plz": 1020,
      "city": "Wien",
      "street": "Schönngasse 15-17",
      "country": "Austria"
    },
    "style": "commercial",
    "link": {
      "url": "https://www.happylab.at",
      "text": "happylab.at"
    }
  },


  {
    "name": "Maker Austria",
    "loc": {
      "lat": 48.1882890,
      "long": 16.3467836,
      "plz": 1050,
      "city": "Wien",
      "street": "Schönbrunner Straße 125",
      "country": "Austria"
    },
    "style": "commercial",
    "link": {
      "url": "https://www.makeraustria.at",
      "text": "makeraustria.at"
    }
  },


  {
    "name": "HAND.WERK.STADT",
    "loc": {
      "lat": 48.0832519,
      "long": 16.2993311,
      "plz": 2340,
      "city": "Mödling",
      "street": "Diplom-Ingenieur-Wilhelm-Haßlinger-Straße 3",
      "country": "Austria"
    },
    "style": "commercial",
    "link": {
      "url": "http://www.handwerkstadt.org",
      "text": "handwerkstadt.org"
    }
  },


  {
    "name": "/usr/space",
    "loc": {
      "lat": 47.9229905,
      "long": 16.2119331,
      "plz": 2544,
      "city": "Leobersdorf",
      "street": "Mühlgasse 8",
      "country": "Austria"
    },
    "style": "for all",
    "link": {
      "url": "https://www.usrspace.at",
      "text": "usrspace.at"
    }
  },


  {
    "name": "Segmentation Vault",
    "loc": {
      "lat": 48.2036763,
      "long": 15.6201487,
      "plz": 3100,
      "city": "St. Pölten",
      "street": "Ludwig-Stöhr-Straße 8",
      "country": "Austria"
    },
    "style": "for all",
    "link": {
      "url": "https://segvault.space",
      "text": "segvault.space"
    }
  },


  {
    "name": "/dev/lol",
    "loc": {
      "lat": 48.3058349,
      "long": 14.2838510,
      "plz": 4020,
      "city": "Linz",
      "street": "Hofgasse 19",
      "country": "Austria"
    },
    "style": "for all",
    "link": {
      "url": "https://devlol.org",
      "text": "devlol.org"
    }
  },


  {
    "name": "otelo Linz",
    "loc": {
      "lat": 48.2492638,
      "long": 14.3082813,
      "plz": 4030,
      "city": "Linz",
      "street": "Wüstenrotplatz 2",
      "country": "Austria"
    },
    "style": "for all",
    "link": {
      "url": "https://www.otelolinz.at",
      "text": "otelolinz.at"
    }
  },


  {
    "name": "Steyr-Werke",
    "loc": {
      "lat": 48.0449155,
      "long": 14.4167987,
      "plz": 4400,
      "city": "Steyr",
      "street": "Wieserfeldplatz 11",
      "country": "Austria"
    },
    "style": "for all",
    "link": {
      "url": "https://www.steyr-werke.at",
      "text": "steyr-werke.at"
    }
  },


  {
    "name": "otelo Vorchdorf",
    "loc": {
      "lat": 48.0062999,
      "long": 13.9231099,
      "plz": 4655,
      "city": "Vorchdorf",
      "street": "Schulstraße 8",
      "country": "Austria"
    },
    "style": "for all",
    "link": {
      "url": "https://otelo.or.at/standort/vorchdorf",
      "text": "otelo.or.at/standort/vorchdorf"
    }
  },


  {
    "name": "IT-Syndikat",
    "loc": {
      "lat": 47.2578210,
      "long": 11.3960576,
      "plz": 6020,
      "city": "Innsbruck",
      "street": "Tschamlerstraße 3",
      "country": "Austria"
    },
    "style": "for all",
    "link": {
      "url": "https://it-syndikat.org",
      "text": "it-syndikat.org"
    }
  },


  {
    "name": "Makerspace Carinthia",
    "loc": {
      "lat": 46.6180671,
      "long": 14.3171542,
      "plz": 9020,
      "city": "Klagenfurt am Wörthersee",
      "street": "Lastenstraße 26",
      "country": "Austria"
    },
    "style": "commercial",
    "link": {
      "url": "https://www.makerspace-carinthia.com",
      "text": "makerspace-carinthia.com"
    }
  },


  {
    "name": "FabLab Winti",
    "loc": {
      "lat": 47.4942757,
      "long": 8.7165349,
      "plz": 8406,
      "city": "Winterthur",
      "street": "Technoparkstrasse 2",
      "country": "Switzerland"
    },
    "style": "for all",
    "link": {
      "url": "https://fablabwinti.ch",
      "text": "fablabwinti.ch"
    }
  },


  {
    "name": "Ruum42",
    "loc": {
      "lat": 47.4206758,
      "long": 9.3557012,
      "plz": 9000,
      "city": "St. Gallen",
      "street": "Andreasstrasse 5",
      "country": "Switzerland"
    },
    "style": "for all",
    "link": {
      "url": "https://www.ruum42.ch",
      "text": "ruum42.ch"
    }
  },


  {
    "name": "NAME_NAME",
    "loc": {
      "lat": 22,
      "long": 55,
      "plz": 111111,
      "city": "CITY_CITY",
      "street": "STREET_STREET",
      "country": "COUNTRY_COUNTRY"
    },
    "style": "STYLE_STYLE",
    "link": {
      "url": "URL_URL_URL",
      "text": "URL_TXT"
    }
  },






{
  "name": "Ruum42",
  "loc": {
    "lat": 46.4786013
    "long": 11.3325925,
    "plz": 39100,
    "city": "Bolzano-Bozen",
    "street": "Via Volta 13a",
    "country": "Italy"
  },
  "style": "commercial",
  "link": {
    "url": "https://makerspace.noi.bz.it",
    "text": "makerspace.noi.bz.it"
  }
}


]



