


[
  {
    "name": "Toolbox Bodensee",
    "loc": {
      "lat": 47.7126816,
      "long": 9.3995537,
      "plz": 88677,
      "city": "Markdorf",
      "street": "Bergheimer Straße 6",
      "country": "DE" 
    },
    "style": "",
    "link": {
      "url": "https://www.toolbox-bodensee.de",
      "text": "toolbox-bodensee.de"
    }
  },


  {
    "name": "SLUB Makerspace",
    "loc": {
      "lat": 51.0296177,
      "long": 13.7387907,
      "plz": 1069,
      "city": "Dresden",
      "street": "Zellescher Weg 17",
      "country": "Germany"
    },
    "style": "commercial",
    "link": {
      "url": "https://www.slub-dresden.de",
      "text": "slub-dresden.de"
    }
  },


  {
    "name": "Makerspace Leipzig",
    "loc": {
      "lat": 51.3664380,
      "long": 12.3651633,
      "plz": 4155,
      "city": "Leipzig",
      "street": "Lindenthaler Straße 61-65",
      "country": "Germany"
    },
    "style": "",
    "link": {
      "url": "https://www.makerspace-leipzig.de",
      "text": "makerspace-leipzig.de"
    }
  },


  {
    "name": "TüftelLab Berlin",
    "loc": {
      "lat": 52.5034893,
      "long": 13.4322983,
      "plz": 10969,
      "city": "Berlin",
      "street": "Prinzenstraße 85c",
      "country": "Germany"
    },
    "style": "youth",
    "link": {
      "url": "https://tueftellab.de/makerspace/berlin",
      "text": "tueftellab.de"
    }
  },


  {
    "name": "Happylab Berlin",
    "loc": {
      "lat": 52.4793453,
      "long": 13.4323412,
      "plz": 12053,
      "city": "Berlin",
      "street": "Rollbergstraße 28a",
      "country": "Germany"
    },
    "style": "commercial",
    "link": {
      "url": "https://www.happylab.de/de_ber",
      "text": "happylab.de/de_ber"
    }
  },


  {
    "name": "Landkombinat e.V.",
    "loc": {
      "lat": 53.8400254,
      "long": 13.0743426,
      "plz": 17111,
      "city": "Beggerow",
      "street": "Gatschow 22",
      "country": "Germany"
    },
    "style": "",
    "link": {
      "url": "https://www.landkombinat.org/konzept-werkstaetten",
      "text": "landkombinat.org"
    }
  },


  {
    "name": "Entität e. V.",
    "loc": {
      "lat": 53.5600378,
      "long": 13.2633732,
      "plz": 17033,
      "city": "Neubrandenburg",
      "street": "1. Ringstraße 5",
      "country": "Germany"
    },
    "style": "",
    "link": {
      "url": "https://entitaet.org",
      "text": "entitaet.org"
    }
  },


  {
    "name": "Makerspace Greifswald",
    "loc": {
      "lat": 54.1020857,
      "long": 13.4426848,
      "plz": 17493,
      "city": "Greifswald",
      "street": "Friedrich-von-Hagenow-Straße 5",
      "country": "Germany"
    },
    "style": "",
    "link": {
      "url": "https://greifswald.space",
      "text": "greifswald.space"
    }
  },


  {
    "name": "Hackspace Rostock",
    "loc": {
      "lat": 54.0873611,
      "long": 12.1245820,
      "plz": 18057,
      "city": "Rostock",
      "street": "Friedhofsweg 44a",
      "country": "Germany"
    },
    "style": "",
    "link": {
      "url": "https://hack-hro.de",
      "text": "hack-hro.de"
    }
  },


  {
    "name": "TüftelLab Hamburg",
    "loc": {
      "lat": 53.5552490,
      "long": 9.9875944,
      "plz": 20354,
      "city": "Hamburg",
      "street": "Gänsemarkt 33",
      "country": "Germany"
    },
    "style": "youth",
    "link": {
      "url": "https://tueftellab.de/makerspace/hamburg-105viertel",
      "text": "tueftellab.de"
    }
  },


  {
    "name": "HoFaLab e.V.",
    "loc": {
      "lat": 53.5205538,
      "long": 10.0199596,
      "plz": 20539,
      "city": "Hamburg",
      "street": "Packersweide 7",
      "country": "Germany"
    },
    "style": "",
    "link": {
      "url": "https://hofalab.de/de/home-de/",
      "text": "hofalab.de"
    }
  },


  {
    "name": "Fabulous St. Pauli",
    "loc": {
      "lat": 53.5421506,
      "long": 10.010595,
      "plz": 20457,
      "city": "Hamburg",
      "street": "Stockmeyerstr. 43, Halle 4K",
      "country": "Germany"
    },
    "style": "",
    "link": {
      "url": "https://www.fablab-hamburg.org",
      "text": "fablab-hamburg.org"
    }
  },


  {
    "name": "TU Hamburg - WorkING Lab",
    "loc": {
      "lat": 53.4594515,
      "long": 9.9692056,
      "plz": 21073,
      "city": "Hamburg",
      "street": "Eißendorfer Straße 40",
      "country": "Germany"
    },
    "style": "",
    "link": {
      "url": "https://www2.tuhh.de/zll/workinglab",
      "text": "tuhh.de/zll/workinglab"
    }
  },


  {
    "name": "Makerhafen",
    "loc": {
      "lat": 53.5628589,
      "long": 9.9257698,
      "plz": 22761,
      "city": "Hamburg",
      "street": "Stahltwiete 21",
      "country": "Germany"
    },
    "style": "",
    "link": {
      "url": "https://www.makerhafen.de",
      "text": "makerhafen.de"
    }
  },


  {
    "name": "Attraktor",
    "loc": {
      "lat": 53.5498981,
      "long": 9.9464159,
      "plz": 22767,
      "city": "Hamburg",
      "street": "Eschelsweg 4",
      "country": "Germany"
    },
    "style": "",
    "link": {
      "url": "https://makerspace-hamburg.de/attraktor",
      "text": "makerspace-hamburg.de/attraktor"
    }
  },


  {
    "name": "StartUpYard Wismar",
    "loc": {
      "lat": 53.8892887,
      "long": 11.4471012,
      "plz": 23966,
      "city": "Wismar",
      "street": "Philipp-Müller-Straße 14",
      "country": "Germany"
    },
    "style": "student",
    "link": {
      "url": "https://www.hs-wismar.de/vernetzung/institutionen-hochschulunternehmen/rsi/idee-und-gruendung/startupyard/",
      "text": "hs-wismar.de"
    }
  },


  {
    "name": "FabLab Bremen",
    "loc": {
      "lat": 53.0811707,
      "long": 8.8161746,
      "plz": 28195,
      "city": "Bremen",
      "street": "An der Weide 50a",
      "country": "Germany"
    },
    "style": "student, youth",
    "link": {
      "url": "https://fablab-bremen.org",
      "text": "fablab-bremen.org"
    }
  },


  {
    "name": "Hackerspace Bremen",
    "loc": {
      "lat": 53.0819924,
      "long": 8.8058690,
      "plz": 28195,
      "city": "Bremen",
      "street": "Bornstraße 14-15",
      "country": "Germany"
    },
    "style": "",
    "link": {
      "url": "https://www.hackerspace-bremen.de",
      "text": "hackerspace-bremen.de"
    }
  },


  {
    "name": "Hafven Maker Space",
    "loc": {
      "lat": 52.3880068,
      "long": 9.7262848,
      "plz": 30167,
      "city": "Hannover",
      "street": "Kopernikusstraße 14",
      "country": "Germany"
    },
    "style": "",
    "link": {
      "url": "https://hafven.de/maker-space",
      "text": "hafven.de/maker-space"
    }
  },


  {
    "name": "MakerSpace Minden",
    "loc": {
      "lat": 52.2822402,
      "long": 8.9106055,
      "plz": 32423,
      "city": "Minden",
      "street": "Simeonscarré 2",
      "country": "Germany"
    },
    "style": "",
    "link": {
      "url": "https://www.makerspace-minden.de",
      "text": "makerspace-minden.de"
    }
  },


  {
    "name": "C3PB",
    "loc": {
      "lat": 51.7170399,
      "long": 8.7475661,
      "plz": 33098,
      "city": "Paderborn",
      "street": "Westernmauer 12-16",
      "country": "Germany"
    },
    "style": "",
    "link": {
      "url": "https://c3pb.de",
      "text": "c3pb.de"
    }
  },


  {
    "name": "Univ. Paderborn - garage33",
    "loc": {
      "lat": 51.7198208,
      "long": 8.7799918,
      "plz": 33100,
      "city": "Paderborn",
      "street": "Ausblick 1",
      "country": "Germany"
    },
    "style": "",
    "link": {
      "url": "https://www.tecup.de/maker-space",
      "text": "tecup.de/maker-space"
    }
  },


  {
    "name": "Makerspace Gütersloh",
    "loc": {
      "lat": 51.9022879,
      "long": 8.3773189,
      "plz": 33330,
      "city": "Gütersloh",
      "street": "Bogenstraße 1-8",
      "country": "Germany"
    },
    "style": "",
    "link": {
      "url": "https://makerspace-gt.de",
      "text": "makerspace-gt.de"
    }
  },


  {
    "name": "Hackerspace Bielefeld",
    "loc": {
      "lat": 52.0369989,
      "long": 8.5692467,
      "plz": 33609,
      "city": "Bielefeld",
      "street": "Blomestraße 27",
      "country": "Germany"
    },
    "style": "",
    "link": {
      "url": "https://hackerspace-bielefeld.de",
      "text": "hackerspace-bielefeld.de"
    }
  },


  {
    "name": "flipdot Hackspace",
    "loc": {
      "lat": 51.3209321,
      "long": 9.4950466,
      "plz": 34117,
      "city": "Kassel",
      "street": "Schillerstraße 25",
      "country": "Germany"
    },
    "style": "",
    "link": {
      "url": "https://flipdot.org",
      "text": "flipdot.org"
    }
  },


  {
    "name": "Makerspace Gießen",
    "loc": {
      "lat": 50.5899306,
      "long": 8.6777523,
      "plz": 35390,
      "city": "Gießen",
      "street": "Walltorstraße 57",
      "country": "Germany"
    },
    "style": "",
    "link": {
      "url": "https://www.makerspace-giessen.de",
      "text": "makerspace-giessen.de"
    }
  },


  {
    "name": "Magrathea Laboratories",
    "loc": {
      "lat": 50.5522661,
      "long": 9.6807826,
      "plz": 36037,
      "city": "Fulda",
      "street": "Lindenstraße 14",
      "country": "Germany"
    },
    "style": "",
    "link": {
      "url": "https://maglab.space/de",
      "text": "maglab.space/de/"
    }
  },


  {
    "name": "oLaF - offenes Labor Fulda",
    "loc": {
      "lat": 50.5545190,
      "long": 9.6969593,
      "plz": 36037,
      "city": "Fulda",
      "street": "Domänenweg 2",
      "country": "Germany"
    },
    "style": "",
    "link": {
      "url": "https://olaf.one",
      "text": "olaf.one"
    }
  },


  {
    "name": "Makerspace Braunschweig",
    "loc": {
      "lat": 52.2822038,
      "long": 10.5156945,
      "plz": 38114,
      "city": "Braunschweig",
      "street": "Hamburger Str. 49",
      "country": "Germany"
    },
    "style": "",
    "link": {
      "url": "https://www.makerspace-bs.de",
      "text": "makerspace-bs.de"
    }
  },


  {
    "name": "TüftelLab Neuss",
    "loc": {
      "lat": 51.2013193,
      "long": 6.6868142,
      "plz": 41460,
      "city": "Neuss",
      "street": "Krefelder Str. 55",
      "country": "Germany"
    },
    "style": "youth",
    "link": {
      "url": "https://tueftellab.de/makerspace/rhein-kreis-neuss",
      "text": "tueftellab.de"
    }
  },


  {
    "name": "RUB-Makerspace",
    "loc": {
      "lat": 51.4654434,
      "long": 7.2597076,
      "plz": 44803,
      "city": "Bochum",
      "street": "Suttner-Nobel-Allee 4",
      "country": "Germany"
    },
    "style": "",
    "link": {
      "url": "https://makerspace.ruhr-uni-bochum.de",
      "text": "makerspace.ruhr-uni-bochum.de"
    }
  },


  {
    "name": "Makerspace Bocholt",
    "loc": {
      "lat": 51.8385327,
      "long": 6.6037374,
      "plz": 46399,
      "city": "Bocholt",
      "street": "Westend 31",
      "country": "Germany"
    },
    "style": "",
    "link": {
      "url": "https://www.makerspace-bocholt.de",
      "text": "makerspace-bocholt.de"
    }
  },


  {
    "name": "Makerspace FH Münster",
    "loc": {
      "lat": 52.1431977,
      "long": 7.3234219,
      "plz": 48565,
      "city": "Steinfurt",
      "street": "Stegerwaldstraße 39",
      "country": "Germany"
    },
    "style": "student",
    "link": {
      "url": "https://www.fh-muenster.de/de/makerspace",
      "text": "muenster.de/de/makerspace"
    }
  },


  {
    "name": "Makerspace TH Köln",
    "loc": {
      "lat": 50.9349146,
      "long": 6.9881421,
      "plz": 50679,
      "city": "Köln",
      "street": "Betzdorfer Straße 2",
      "country": "Germany"
    },
    "style": "student",
    "link": {
      "url": "https://www.th-koeln.de/forschung/makerspace-und-mini-inkubatoren_77114.php",
      "text": "https://www.th-koeln.de"
    }
  },


  {
    "name": "Makerspace Bonn",
    "loc": {
      "lat": 50.6981704,
      "long": 7.1450146,
      "plz": 53175,
      "city": "Bonn",
      "street": "Kennedyallee 18",
      "country": "Germany"
    },
    "style": "",
    "link": {
      "url": "https://www.makerspacebonn.de",
      "text": "makerspacebonn.de"
    }
  },


  {
    "name": "Makerspace Wittlich",
    "loc": {
      "lat": 49.9865645,
      "long": 6.8880852,
      "plz": 54516,
      "city": "Wittlich",
      "street": "Neustraße 6",
      "country": "Germany"
    },
    "style": "",
    "link": {
      "url": "http://www.makerspace.wittlich.de",
      "text": "makerspace.wittlich.de"
    }
  },


  {
    "name": "Space Mayen-Koblenz",
    "loc": {
      "lat": 50.4214156,
      "long": 7.5751553,
      "plz": 56170,
      "city": "Bendorf",
      "street": "Untere Vallendarer Straße 26",
      "country": "Germany"
    },
    "style": "",
    "link": {
      "url": "https://www.makerspace-myk.de",
      "text": "makerspace-myk.de"
    }
  },



  {
    "name": "Makerspace Hanau",
    "loc": {
      "lat": 50.1352742,
      "long": 8.9175025,
      "plz": 63450,
      "city": "Hanau",
      "street": "Am Markt 14-18",
      "country": "Germany"
    },
    "style": "",
    "link": {
      "url": "https://www.kulturforum-hanau.de/angebote/49944/index.html",
      "text": "kulturforum-hanau.de"
    }
  },

  
  {
    "name": "Makerspace Darmstadt",
    "loc": {
      "lat": 49.8802245,
      "long": 8.6325583,
      "plz": 64293,
      "city": "Darmstadt",
      "street": "Mainzer Straße 74",
      "country": "Germany"
    },
    "style": "",
    "link": {
      "url": "https://www.makerspace-darmstadt.de",
      "text": "makerspace-darmstadt.de"
    }
  },


  {
    "name": "Makerspace Wiesbaden",
    "loc": {
      "lat": 50.0555848,
      "long": 8.3085765,
      "plz": 65205,
      "city": "Wiesbaden",
      "street": "Wandersmannstrasse 60",
      "country": "Germany"
    },
    "style": "",
    "link": {
      "url": "https://www.makerspace-wi.de",
      "text": "makerspace-wi.de"
    }
  },


  {
    "name": "Ideenw3rk Ludwigshafen",
    "loc": {
      "lat": 49.4808814,
      "long": 8.4486120,
      "plz": 67059,
      "city": "Ludwigshafen",
      "street": "Bismarckstraße 44-48",
      "country": "Germany"
    },
    "style": "",
    "link": {
      "url": "https://www.ideenw3rk.de",
      "text": "ideenw3rk.de"
    }
  },


  {
    "name": "Makerspace Rhein-Neckar",
    "loc": {
      "lat": 49.7520597,
      "long": 8.4526774,
      "plz": 67065,
      "city": "Ludwigshafen am Rhein",
      "street": "Am Bubenpfad 2",
      "country": "Germany"
    },
    "style": "",
    "link": {
      "url": "https://makerspace-rheinneckar.de",
      "text": "makerspace-rheinneckar.de"
    }
  },


  {
    "name": "U.10 Makerspace in der vhs",
    "loc": {
      "lat": 49.6277619,
      "long": 8.3563924,
      "plz": 67547,
      "city": "Worms",
      "street": "Willy-Brandt-Ring 11",
      "country": "Germany"
    },
    "style": "",
    "link": {
      "url": "https://u10.makercloud.de",
      "text": "u10.makercloud.de"
    }
  },


  {
    "name": "RaumZeitLabor",
    "loc": {
      "lat": 49.5074119,
      "long": 8.5206333,
      "plz": 68309,
      "city": "Mannheim",
      "street": "Weinheimer Strasse 58-60",
      "country": "Germany"
    },
    "style": "",
    "link": {
      "url": "https://raumzeitlabor.de",
      "text": "raumzeitlabor.de"
    }
  },


  {
    "name": "CoMakingSpace",
    "loc": {
      "lat": 49.4082468,
      "long": 8.6465979,
      "plz": 69123,
      "city": "Heidelberg",
      "street": "Siemensstraße 40",
      "country": "Germany"
    },
    "style": "",
    "link": {
      "url": "https://www.comakingspace.org",
      "text": "comakingspace.org"
    }
  },


  {
    "name": "Friedrich-Realschule Makerspace",
    "loc": {
      "lat": 49.5604562,
      "long": 8.6689824,
      "plz": 69469,
      "city": "Weinheim",
      "street": "Bergstraße 70",
      "country": "Germany"
    },
    "style": "youth",
    "link": {
      "url": "https://www.frsweinheim.de/index.php/schule/makerspace",
      "text": "frsweinheim.de"
    }
  },


  {
    "name": "Makerspace - Hochschule d. Medien",
    "loc": {
      "lat": 48.7462142,
      "long": 9.1037595,
      "plz": 70569,
      "city": "Stuttgart",
      "street": "Nobelstraße 10",
      "country": "Germany"
    },
    "style": "student",
    "link": {
      "url": "https://www.hdm-stuttgart.de/makerspace",
      "text": "hdm-stuttgart.de/makerspace"
    }
  },


  {
    "name": "Univ. Stuttgart - Universum",
    "loc": {
      "lat": 48.7462287,
      "long": 9.1037325,
      "plz": 70569,
      "city": "Stuttgart",
      "street": "Pfaffenwaldring 45",
      "country": "Germany"
    },
    "style": "student",
    "link": {
      "url": "https://www.tik.uni-stuttgart.de/forschung-und-lehre/makerspace",
      "text": "tik.uni-stuttgart.de"
    }
  },


  {
    "name": "Essembly",
    "loc": {
      "lat": 48.7414977,
      "long": 9.3119614,
      "plz": 73728,
      "city": "Esslingen am Neckar",
      "street": "Milchstraße 17",
      "country": "Germany"
    },
    "style": "",
    "link": {
      "url": "https://essembly.de/",
      "text": "essembly.de/"
    }
  },


  {
    "name": "FabLab Neuenstadt",
    "loc": {
      "lat": 49.2370860,
      "long": 9.3362978,
      "plz": 74196,
      "city": "Neuenstadt am Kocher",
      "street": "Öhringer Str. 24",
      "country": "Germany"
    },
    "style": "",
    "link": {
      "url": "https://www.fablab-neuenstadt.de",
      "text": "fablab-neuenstadt.de"
    }
  },


  {
    "name": "FabLab Karlsruhe",
    "loc": {
      "lat": 49.0047362,
      "long": 8.4291871,
      "plz": 76131,
      "city": "Karlsruhe",
      "street": "Alter Schlachthof 25a",
      "country": "Germany"
    },
    "style": "",
    "link": {
      "url": "https://fablab-karlsruhe.de",
      "text": "fablab-karlsruhe.de"
    }
  },


  {
    "name": "Entropia e.V.",
    "loc": {
      "lat": 49.0068805,
      "long": 8.4071734,
      "plz": 76133,
      "city": "Karlsruhe",
      "street": "Steinstraße 23",
      "country": "Germany"
    },
    "style": "",
    "link": {
      "url": "https://entropia.de",
      "text": "entropia.de"
    }
  },


  {
    "name": "BÄMlab im ZKM",
    "loc": {
      "lat": 49.0013440,
      "long": 8.3839439,
      "plz": 76135,
      "city": "Karlsruhe",
      "street": "Lorenzstraße 19",
      "country": "Germany"
    },
    "style": "",
    "link": {
      "url": "https://zkm.de/de/suche?search=B%C3%84Mlab",
      "text": "zkm.de"
    }
  },


  {
    "name": "FabLab Bruchsal",
    "loc": {
      "lat": 49.1682700,
      "long": 8.6204634,
      "plz": 76698,
      "city": "Ubstadt-Weiher",
      "street": "Bahnhofstraße 2",
      "country": "Germany"
    },
    "style": "",
    "link": {
      "url": "https://fablab-bruchsal.de",
      "text": "fablab-bruchsal.de"
    }
  },


  {
    "name": "Makerspace HS Offenburg",
    "loc": {
      "lat": 48.4576465,
      "long": 7.9423574,
      "plz": 77652,
      "city": "Offenburg",
      "street": "Badstraße 24",
      "country": "Germany"
    },
    "style": "",
    "link": {
      "url": "https://emi.hs-offenburg.de/fakultaet-elektrotechnik-medizintechnik-und-informatik/labore/edu-fablab-hso",
      "text": "emi.hs-offenburg.de"
    }
  },


  {
    "name": "Makerspace HS Offenburg",
    "loc": {
      "lat": 48.0092550,
      "long": 7.8281109,
      "plz": 79110,
      "city": "Freiburg im Breisgau",
      "street": "Ensisheimer Str. 4",
      "country": "Germany"
    },
    "style": "",
    "link": {
      "url": "https://freilab.de",
      "text": "freilab.de"
    }
  },


  {
    "name": "Munich Maker Lab",
    "loc": {
      "lat": 48.1589395,
      "long": 11.5500795,
      "plz": 80636,
      "city": "München",
      "street": "Dachauer Str. 112h",
      "country": "Germany"
    },
    "style": "",
    "link": {
      "url": "https://www.munichmakerlab.de",
      "text": "munichmakerlab.de"
    }
  },


  {
    "name": "Makerspace München",
    "loc": {
      "lat": 48.1608454,
      "long": 11.5524567,
      "plz": 80797,
      "city": "München",
      "street": "Freddie-Mercury-Straße 5",
      "country": "Germany"
    },
    "style": "",
    "link": {
      "url": "https://www.maker-space.de",
      "text": "maker-space.de"
    }
  },


  {
    "name": "TüftelLab München",
    "loc": {
      "lat": 48.1570606,
      "long": 11.5514604,
      "plz": 80797,
      "city": "München",
      "street": "Freddie-Mercury-Straße 5",
      "country": "Germany"
    },
    "style": "youth",
    "link": {
      "url": "https://tueftellab.de/makerspace/muenchen",
      "text": "tueftellab.de"
    }
  },


  {
    "name": "brigk Makerspace",
    "loc": {
      "lat": 48.7651278,
      "long": 11.4343439,
      "plz": 85049,
      "city": "Ingolstadt",
      "street": "Schloßlände 26",
      "country": "Germany"
    },
    "style": "commercial",
    "link": {
      "url": "https://www.brigk.digital/brigk-makerspace",
      "text": "brigk.digital/brigk-makerspace"
    }
  },


  {
    "name": "Makerspace Garching",
    "loc": {
      "lat": 48.2683205,
      "long": 11.6660252,
      "plz": 85748,
      "city": "Garching bei München",
      "street": "Lichtenbergstraße 6",
      "country": "Germany"
    },
    "style": "",
    "link": {
      "url": "https://www.maker-space.de",
      "text": "maker-space.de"
    }
  },


  {
    "name": "Freiraum",
    "loc": {
      "lat": 48.4005227,
      "long": 9.991260,
      "plz": 89073,
      "city": "Ulm",
      "street": "Platzgasse 18",
      "country": "Germany"
    },
    "style": "",
    "link": {
      "url": "https://frrm.de",
      "text": "frrm.de"
    }
  },


  {
    "name": "Univ. Ulm - Student Lab",
    "loc": {
      "lat": 48.4199119,
      "long": 9.9467254,
      "plz": 89081,
      "city": "Ulm",
      "street": "Albert-Einstein-Allee 11, Raum 43.1.106",
      "country": "Germany"
    },
    "style": "student",
    "link": {
      "url": "https://wiki.fs-et.de/student-lab",
      "text": "wiki.fs-et.de/student-lab"
    }
  },


  {
    "name": "Temporärhaus",
    "loc": {
      "lat": 48.3962981,
      "long": 10.0020026,
      "plz": 89231,
      "city": "Neu-Ulm",
      "street": "Augsburger Str. 23",
      "country": "Germany"
    },
    "style": "",
    "link": {
      "url": "https://temporaerhaus.de",
      "text": "temporaerhaus.de"
    }
  },


  {
    "name": "CREAPOLIS Makerspace",
    "loc": {
      "lat": 50.2538682,
      "long": 10.9595537,
      "plz": 96450,
      "city": "Coburg",
      "street": "Schlachthofstr. 1",
      "country": "Germany"
    },
    "style": "",
    "link": {
      "url": "https://www.hs-coburg.de/hochschule/organisation/servicestellen/referat-transfer-entrepreneurship/creapolis-makerspace",
      "text": "hs-coburg.de"
    }
  },


  {
    "name": "Makerspace Carinthia",
    "loc": {
      "lat": 46.6180671,
      "long": 14.3171542,
      "plz": 9020,
      "city": "Klagenfurt am Wörthersee",
      "street": "Lastenstraße 26",
      "country": "Austria"
    },
    "style": "commercial",
    "link": {
      "url": "https://www.makerspace-carinthia.com",
      "text": "makerspace-carinthia.com"
    }
  },


  {
    "name": "NAME_NAME",
    "loc": {
      "lat": 22,
      "long": 55,
      "plz": 111111,
      "city": "CITY_CITY",
      "street": "STREET_STREET",
      "country": "COUNTRY_COUNTRY"
    },
    "style": "STYLE_STYLE",
    "link": {
      "url": "URL_URL_URL",
      "text": "URL_TXT"
    }
  }

]



